id,created_at,updated_at,address,closing_time,current_customer_count,favorite_count,last_order_time,latitude,longitude,max_customer_count,name,opening_time,store_congestion_level,store_congestion_value,user_congestion_input_time,user_congestion_level,user_congestion_value,user_id,image
1,2024-10-03 17:54:37.000000,2024-10-30 13:38:09.780810,경기도 고양시 덕양구 항공대학로 76-3,22:00:00,30,2,20:30:00,37.60001752957557,126.86449887836933,55,Bluepot,8:30:00,2,67,2024-10-05 16:42:50.100420,2,90,1,
2,,2024-11-02 22:17:15.725150,경기도 고양시 덕양구 흥도로 425-21,21:00:00,20,1,20:00:00,37.64295307,126.8497673,50,카페릿지,9:00:00,1,50,,2,90,2,
3,,,경기도 고양시 덕양구 흥도로 449 빵다방,21:00:00,30,0,20:00:00,37.64474245,126.8514947,40,Bbang-dabang,8:30:00,0,0,,0,0,3,
4,,2024-11-02 00:14:05.101711,경기도 고양시 덕양구 충경로 38,22:30:00,30,1,22:00:00,37.6152019,126.8337105,60,컴포즈커피 고양행신점,10:00:00,0,15,,0,25,4,
5,,2024-10-29 14:25:43.714376,경기도 고양시 덕양구 충장로 22 101호,20:30:00,15,3,20:15:00,37.61480327,126.8344569,30,MEGACffe_Goyang,7:30:00,0,25,,0,30,5,
6,,2024-10-14 14:26:52.684090,경기도 고양시 덕양구 충경로 52 남정씨티프라자 1층 빽다방 행신역점,22:00:00,10,5,21:30:00,37.61522842,126.8353407,75,빽다방 행신역점,8:30:00,0,15,,0,25,6,
7,,,경기도 고양시 덕양구 충장로 14 (행신동),21:30:00,10,0,21:15:00,37.61403638,126.8344761,50,Starbucks_Hangshin,9:00:00,0,25,,0,30,7,
8,,2024-10-29 14:21:36.389258,경기도 고양시 덕양구 충장로 8 행신역cgv타워 102호,21:00:00,20,1,20:30:00,37.61353121,126.8344894,35,투썸플레이스 행신역점,8:00:00,1,35,,1,50,8,
9,,2024-10-29 14:21:16.193061,경기도 고양시 덕양구 용현로 7 1층 103호 너랑나달달해,22:30:00,40,1,22:00:00,37.6134178,126.8355335,45,너랑나달달해,10:00:00,1,50,,1,45,9,
10,,2024-10-29 14:23:00.334035,경기도 고양시 덕양구 무원로 22 1층,20:30:00,80,1,20:15:00,37.61468883,126.8326579,100,모어컴파운드,7:30:00,0,30,,1,35,10,
11,,2024-10-29 14:22:20.069049,경기도 고양시 덕양구 무원로 32 103호,22:00:00,50,1,21:30:00,37.61567621,126.8325216,55,하삼동커피 행신점,8:30:00,1,40,,1,45,11,
12,,2024-10-29 23:44:34.395283,경기도 고양시 덕양구 무원로36번길 16 1층,21:30:00,10,1,21:15:00,37.61584313,126.8333245,50,카페행신,9:00:00,1,45,,1,55,12,
13,,2024-11-02 22:17:55.227236,경기도 고양시 덕양구 용현로35번길 5 1층,21:00:00,10,1,20:30:00,37.6158381,126.8353915,40,somuchlove,8:00:00,1,55,,1,60,13,
14,,,서울특별시 마포구 양화로21길 23,22:30:00,0,0,22:00:00,37.55932021,126.9246479,60,카페꼼마 동교점,10:00:00,1,65,,2,70,14,
15,,,서울특별시 마포구 양화로23길 28 3층,20:30:00,15,0,20:15:00,37.55960862,126.9250644,30,비포블루밍,7:30:00,2,75,,2,70,15,
16,,,"서울특별시 마포구 연희로 1-1 1,2층",22:00:00,20,0,21:30:00,37.55901257,126.926145,80,콘하스 연남점,8:30:00,2,70,,2,80,16,
17,,,서울특별시 마포구 연희로 11 1층 카페 공명 연남,21:30:00,40,0,21:15:00,37.55987149,126.9263002,50,카페 공명 연남점,9:00:00,2,75,,2,80,17,
18,,2024-11-02 22:05:44.683146,서울특별시 마포구 양화로 165 상진빌딩 1층 (동교동),21:00:00,30,1,20:30:00,37.55713067,126.9236162,35,스타벅스 홍대역점,8:00:00,2,80,,2,75,18,
19,,2024-10-30 13:39:32.796460,서울특별시 마포구 양화로 166 (동교동),22:30:00,30,0,22:00:00,37.5567435,126.9241665,45,스타벅스 홍대역8번출구점,10:00:00,2,85,,2,80,19,
20,,2024-10-30 13:43:12.678534,서울특별시 마포구 어울마당로 114 1층 공차,20:30:00,40,2,20:15:00,37.55483575,126.9232196,100,공차 홍대점,7:30:00,2,100,,2,90,20,
21,,2024-10-30 13:33:11.112640,서울특별시 성북구 동소문로22길 67 2층 cafe los dias,22:00:00,50,1,21:30:00,37.59017253,127.0188881,55,Los Dias,8:30:00,2,95,,2,80,21,
22,,2024-10-30 13:35:55.826309,서울특별시 성북구 동소문로22길 57-17 1층,21:30:00,45,1,21:15:00,37.59082622,127.0193127,50,카페 나의우주,9:00:00,2,90,,2,80,22,
23,,2024-10-30 13:35:56.907203,서울특별시 성북구 보문로30길 74-1 한옥 sisemdal atelier,21:00:00,0,1,20:30:00,37.59080989,127.0199819,40,시샘달 아뜰리에,8:00:00,2,95,,2,75,23,
24,,,"서울특별시 성북구 동소문로22길 39-4 1,2층",22:30:00,30,0,22:00:00,37.59127712,127.0185237,60,카페온더플랜,10:00:00,0,15,,1,55,24,
25,,,서울특별시 성북구 동소문로22길 57-4 2층,20:30:00,15,0,20:15:00,37.590526,127.0188348,30,카페 원오프,7:30:00,1,35,,1,50,25,
26,,,서울특별시 용산구 청파로 387,22:00:00,60,0,21:30:00,37.55424571,126.9687942,80,포컬포인트,8:30:00,1,55,,2,70,26,
27,,,서울특별시 용산구 만리재로 198 1층,21:30:00,40,0,21:15:00,37.55488766,126.9680693,50,빌라앰버시,9:00:00,2,80,,1,55,27,
28,,,서울특별시 중구 한강대로 416 1층 아맘픽 서울,21:00:00,30,0,20:30:00,37.55550363,126.9737513,35,아맘픽 서울,8:00:00,0,0,,0,15,28,
29,,,서울특별시 중구 소월로2길 30 1층 107호,22:30:00,15,0,22:00:00,37.55399468,126.9756127,45,니트커피,10:00:00,0,30,,1,35,29,
30,,2024-11-02 22:04:51.846493,서울특별시 중구 통일로 1,20:30:00,25,1,20:15:00,37.55604085,126.9715945,100,연남방앗간 서울역점,7:30:00,2,80,,2,75,30,
31,,,서울특별시 금천구 가산디지털2로 127-20,21:00:00,40,0,20:30:00,37.47933939,126.8780731,50,인크커피 다산점,9:00:00,0,30,,0,25,32,
32,,,서울특별시 구로구 중앙로 100 1층 103호 수밀 블랑제리,22:00:00,60,0,21:30:00,37.5063537,126.8606125,80,수밀 블랑제리,7:30:00,0,15,,0,25,33,
33,,,서울특별시 양천구 오목로56길 2 101호 고도,22:30:00,35,0,22:30:00,37.52419476,126.8737752,70,고도커피,8:30:00,1,65,,1,55,34,
34,,2024-10-30 13:41:28.800285,서울특별시 영등포구 대방천로 239 1층,21:30:00,50,0,21:00:00,37.49876417,126.9174964,90,도토리소년,8:00:00,2,75,,2,70,35,
35,,2024-10-30 13:35:57.929444,서울특별시 영등포구 여의대로 108 6층,20:30:00,15,1,20:00:00,37.52519132,126.9291128,30,베르그 더 현대 서울,9:15:00,2,95,,2,80,36,
36,,2024-10-30 13:35:51.138859,"서울특별시 동작구 노량진로32길 29-6 1, 2층",21:00:00,30,1,20:30:00,37.51231635,126.9569782,45,더한강,9:00:00,2,100,,2,90,37,
37,,,서울특별시 용산구 이촌로 248 한강맨션 31동 208호,22:00:00,30,0,21:30:00,37.51938659,126.975026,35,헬카페 스피리터스,7:30:00,1,45,,1,40,38,
38,,,서울특별시 관악구 봉천로 352 A동 1층 101호,22:30:00,30,0,22:30:00,37.48418232,126.9391107,50,스택빈 관악봉천점,8:30:00,1,35,,0,30,39,
39,,,서울특별시 금천구 범안로 1234 1층,21:30:00,80,0,21:00:00,37.46634555,126.8988575,100,아토커피 독산점,8:00:00,0,10,,0,15,40,
40,,,"서울특별시 영등포구 당산로 109-2 지하1층, 1층",20:30:00,5,0,20:00:00,37.52466848,126.8959291,45,카페버킷리스트,9:15:00,1,50,,1,45,41,
41,,2024-10-29 14:22:36.679410,경기도 이천시 영창로227번길 33 1층 101호,21:00:00,10,1,20:30:00,37.28237905,127.4478508,25,cafe.5woldang,9:00:00,1,45,,1,40,42,
42,,2024-10-30 10:09:48.250613,경기도 이천시 향교로 96 북샘타워 103호 카롱제과,22:00:00,50,0,21:30:00,37.28404717,127.4481998,65,카롱제과 이천점,7:30:00,1,65,,1,60,43,
43,,2024-10-30 11:00:40.384441,경기도 이천시 남천로 50 102호,22:30:00,20,1,22:30:00,37.27720547,127.4428297,35,에트홈,8:30:00,2,85,,2,80,44,
44,,,경기도 이천시 중리천로 84 (중리동),21:30:00,30,0,21:00:00,37.27822294,127.4463508,45,스타벅스 이천터미널점,8:00:00,0,10,,0,15,45,
45,,2024-10-30 13:36:14.529873,경기도 이천시 중리천로70번길 42 1층 날쌘카페,20:30:00,50,1,20:00:00,37.27775521,127.4437877,75,날쌘카페 이천점,9:15:00,0,5,,0,15,46,
46,,,경기도 이천시 서희로71번길 27 1층,21:00:00,25,0,20:30:00,37.28214532,127.4415453,50,가모스타그램,9:00:00,0,15,,0,30,47,
47,,,경기도 이천시 어재연로18번길 34,22:00:00,10,0,21:30:00,37.27803336,127.4455382,25,희굽당,7:30:00,0,30,,0,15,48,
48,,2024-11-02 22:18:22.277642,경기도 이천시 영창로193번길 14 1층 cake89,22:30:00,25,0,22:30:00,37.2819306,127.4444599,60,cake89,8:30:00,1,45,,1,40,49,
49,,2024-10-30 13:36:02.351005,경기도 이천시 어재연로10번길 30 별밤커피,21:30:00,10,1,21:00:00,37.27776315,127.4446976,65,별밤커피,8:00:00,2,70,,1,65,50,
50,,2024-11-02 22:18:05.388857,경기도 이천시 갈산로136번길 153,20:30:00,20,1,20:00:00,37.28606601,127.4602463,50,다육당,9:15:00,2,75,,1,65,51,
51,,2024-10-30 13:36:30.392653,인천광역시 강화군 선원면 중앙로413번길 6 카페희소식,21:00:00,55,1,20:30:00,37.71424497,126.4679192,85,희소식,9:00:00,1,65,,1,55,72,
52,,2024-10-30 13:41:23.858830,인천광역시 강화군 불은면 불은북로 36-8 카페 두운리,22:00:00,40,0,21:30:00,37.68645392,126.4769707,60,두운리,7:30:00,2,75,,2,70,73,
53,,2024-10-30 13:36:25.612604,인천광역시 중구 화랑목로 50-9,22:30:00,30,1,22:30:00,37.49653633,126.499102,55,카페 목현,8:30:00,2,75,,2,80,74,
54,,,인천광역시 강화군 불은면 덕진로 159 강화까까,21:30:00,25,0,21:00:00,37.6528638,126.5106391,45,강화까까,8:00:00,1,45,,1,50,75,
55,,,인천광역시 강화군 길상면 마니산로 106 한옥카페 드리우니,20:30:00,5,0,20:00:00,37.63854316,126.48071,35,드리우니,9:15:00,0,15,,0,20,56,
56,,,인천광역시 강화군 내가면 중앙로1128번길 21,21:00:00,60,0,20:30:00,37.7042167,126.3975076,85,한옥카페 궁,9:00:00,2,75,,2,80,57,
57,,,인천광역시 강화군 내가면 강화서로 91-2 돈대카페 아웃포스트,22:00:00,20,0,21:30:00,37.70951597,126.384701,60,돈대카페 아웃포스트,7:30:00,0,30,,1,55,58,
58,,2024-11-02 22:33:03.626598,인천광역시 강화군 화도면 해안남로2845번길 27,22:30:00,30,1,22:30:00,37.64079484,126.3910162,55,카페라르고빌,8:30:00,1,60,,2,70,59,
59,,2024-10-30 10:09:38.999389,인천광역시 강화군 화도면 해안남로 2680-16 카페 트라몬토,21:30:00,30,0,21:00:00,37.63430732,126.3749622,45,카페 트라몬토,8:00:00,2,75,,2,85,60,
60,,,인천광역시 강화군 길상면 해안동로 244-67 소금정원 강화점,20:30:00,20,0,20:00:00,37.64465307,126.5258504,35,소금정원 강화점,9:15:00,1,65,,1,60,61,
61,,2024-10-30 13:36:49.488709,인천광역시 강화군 선원면 선원사지로51번길 16 프란쓰,21:00:00,60,1,20:30:00,37.72354991,126.508702,85,프란쓰,9:00:00,1,65,,1,60,62,
62,,2024-10-30 13:33:16.863890,인천광역시 강화군 길상면 강화동로 23-16,22:00:00,55,1,21:30:00,37.6410472,126.4908923,60,봉당,7:30:00,2,90,,2,85,63,
63,,,인천광역시 강화군 양도면 해안서로 524 산토리니 카페,22:30:00,40,0,22:30:00,37.67814765,126.4010256,55,산토리니카페,8:30:00,2,80,,1,55,64,
64,,,인천광역시 강화군 양도면 해안서로 540,21:30:00,30,0,21:00:00,37.67911039,126.4000982,45,카페109하우스,8:00:00,2,75,,2,80,65,
65,,,인천광역시 강화군 길상면 해안동로 40-2 블랙펄커피,20:30:00,5,0,20:00:00,37.6308727,126.5332128,35,블랙펄커피,9:15:00,0,15,,0,20,66,
66,,2024-11-02 22:31:54.248334,인천광역시 강화군 길상면 길상로25번길 28,21:00:00,60,0,20:30:00,37.63520725,126.5194184,85,매화마름,9:00:00,1,65,,2,70,67,
67,,,인천광역시 강화군 길상면 길상로210번길 24,22:00:00,15,0,21:30:00,37.63592042,126.5026898,60,카페이림,7:30:00,0,25,,0,30,68,
68,,2024-10-30 13:35:52.033212,인천광역시 강화군 길상면 마니산로 12,22:30:00,40,1,22:30:00,37.64215494,126.4905146,55,우트우트,8:30:00,2,85,,2,90,69,
69,,,인천광역시 중구 운남로82번길 40 지번 : 인천 중구 운남동 324-9,21:30:00,30,0,21:00:00,37.48608613,126.5370821,45,지금이곳,8:00:00,2,75,,2,80,70,
70,,,인천광역시 중구 용유서로 380 전체 통건물,20:30:00,15,0,20:00:00,37.45206932,126.3735222,35,카페오라,9:15:00,1,40,,1,45,71,
71,,,부산광역시 기장군 일광읍 달음길 26,21:00:00,25,0,20:30:00,35.30951907,129.2303016,50,카페 바람,9:00:00,0,15,,1,30,76,
72,,,부산광역시 기장군 일광읍 칠암1길 7-10,22:00:00,10,0,21:30:00,35.29982469,129.2591595,25,칠암사계,7:30:00,1,30,,0,15,77,
73,,,부산광역시 기장군 일광읍 문오성길 22,22:30:00,25,0,22:30:00,35.28238158,129.256687,60,헤이든,8:30:00,1,45,,1,40,78,
74,,,부산광역시 기장군 기장읍 차성동로87번길 26-1,21:30:00,10,0,21:00:00,35.24581739,129.215071,65,브레이크인커피 기장본점,8:00:00,2,70,,2,65,79,
75,,,부산광역시 기장군 기장읍 대변3길 8 제이엠커피로스터스(제이엠커피그룹본사),20:30:00,20,0,20:00:00,35.22287568,129.2315228,50,제이엠커피로스터스 부산 본점,9:15:00,2,75,,2,65,80,
76,,,부산광역시 기장군 기장읍 내리 345-2,21:00:00,25,0,20:30:00,35.20822991,129.2069839,50,호텔엠비언스 마가진,9:00:00,0,15,,1,30,81,
77,,,부산광역시 기장군 기장읍 동암해안길 77 1층 덕미 기장점,22:00:00,10,0,21:30:00,35.19641785,129.2277809,25,덕미 기장점,7:30:00,1,30,,0,15,82,
78,,,부산광역시 기장군 기장읍 당사로5길 6 더가마,22:30:00,25,0,22:30:00,35.18598433,129.209571,60,더가마,8:30:00,1,45,,1,40,83,
79,,,부산광역시 해운대구 송정광어골로 66-1,21:30:00,10,0,21:00:00,35.175682,129.1959154,65,벨라루나,8:00:00,2,70,,2,65,84,
80,,,부산광역시 해운대구 달맞이길117번가길 120-30 6층 스노잉클라우드,20:30:00,20,0,20:00:00,35.15727052,129.1816585,50,스노잉클라우드,9:15:00,2,75,,2,65,85,
81,,,부산광역시 해운대구 중동1로 25-2 1층,21:00:00,25,0,20:30:00,35.16296857,129.1625901,50,보노베리 해운대점,9:00:00,0,15,,1,30,86,
82,,,부산광역시 금정구 금샘로 538,22:00:00,10,0,21:30:00,35.27017891,129.0853111,25,셀라스,7:30:00,1,30,,0,15,87,
83,,,부산광역시 금정구 땅곡길 94-1 아이리,22:30:00,25,0,22:30:00,35.2538389,129.0509849,60,아이리,8:30:00,1,45,,1,40,88,
84,,,부산광역시 금정구 오시게로 20 모모스커피 1층,21:30:00,10,0,21:00:00,35.21923315,129.0864673,65,모모스커피 본점,8:00:00,2,70,,2,65,89,
85,,,부산광역시 부산진구 새싹로 22-1 13F 스페이스앤무드,20:30:00,20,0,20:00:00,35.15987335,129.0577033,50,스페이스앤무드,9:15:00,2,75,,2,65,90,
86,,,부산광역시 수영구 남천바다로21번길 23 1층,21:00:00,25,0,20:30:00,35.15017933,129.1135118,50,카페이플,9:00:00,0,15,,1,30,91,
87,,,부산광역시 수영구 광안해변로 165 2층 202호,22:00:00,10,0,21:30:00,35.14958186,129.1150245,25,비엔나커피 광안리점,7:30:00,1,30,,0,15,92,
88,,,부산광역시 수영구 광안로41번길 14 1층,22:30:00,25,0,22:30:00,35.15598524,129.1169602,60,허밍버드쿠키,8:30:00,1,45,,1,40,93,
89,,,부산광역시 수영구 광안해변로 239 7층,21:30:00,10,0,21:00:00,35.15477914,129.1201127,65,뚜벅스 광안점,8:00:00,2,70,,2,65,94,
90,,,부산광역시 수영구 광안해변로 269 401호 ttt,20:30:00,20,0,20:00:00,35.15585662,129.1230462,50,티티티,9:15:00,2,75,,2,65,95,
91,,,대구광역시 동구 팔공로 1334 커들포드,21:00:00,25,0,20:30:00,35.95929779,128.7234514,50,커들포드,9:00:00,0,15,,1,30,96,
92,,,대구광역시 중구 국채보상로150길 30 1층,22:00:00,10,0,21:30:00,35.86707111,128.6111892,25,모모상점,7:30:00,1,30,,0,15,97,
93,,,대구광역시 중구 동성로4길 93 마이커피컬로맨스,22:30:00,25,0,22:30:00,35.86896564,128.5994467,60,마이커피컬로맨스,8:30:00,1,45,,1,40,98,
94,,,대구광역시 북구 고성북로 28-10 1층,21:30:00,10,0,21:00:00,35.88219912,128.5836351,65,리시트,8:00:00,2,70,,2,65,99,
95,,,대구광역시 중구 종로 72,20:30:00,20,0,20:00:00,35.87218065,128.5910674,50,이씨씨커피,9:15:00,2,75,,2,65,100,
96,,,대구광역시 수성구 국채보상로186길 81 2층 무화커피,21:00:00,25,0,20:30:00,35.86469187,128.6341786,50,무화커피,9:00:00,0,15,,1,30,101,
97,,,대구광역시 중구 봉산문화길 4 1층,22:00:00,10,0,21:30:00,35.86038379,128.5987285,25,피플스커피,7:30:00,1,30,,0,15,102,
98,,,대구광역시 동구 동부로32길 2,22:30:00,25,0,22:30:00,35.87685249,128.6306685,60,애리스커피스탠드,8:30:00,1,45,,1,40,103,
99,,,대구광역시 수성구 달구벌대로496길 48 1층,21:30:00,10,0,21:00:00,35.85424964,128.6342916,65,씨티씨커피 범어점,8:00:00,2,70,,2,65,104,
100,,,대구광역시 수성구 동대구로14길 15-6 2층,20:30:00,20,0,20:00:00,35.83726095,128.6252657,50,데우스커피,9:15:00,2,75,,2,65,105,
101,,,대구광역시 남구 대봉로38길 29,21:00:00,25,0,20:30:00,35.8548391,128.6042067,50,에버유어스,9:00:00,0,15,,1,30,106,
102,,,대구광역시 중구 달구벌대로443길 15-28 102호,22:00:00,10,0,21:30:00,35.86401073,128.6038174,25,살구,7:30:00,1,30,,0,15,107,
103,,,대구광역시 중구 동덕로14길 37 1층 konrad,22:30:00,25,0,22:30:00,35.86084826,128.6059217,60,콘라트,8:30:00,1,45,,1,40,108,
104,,,대구광역시 남구 현충로7길 13-1 플란트,21:30:00,10,0,21:00:00,35.83470134,128.5788887,65,플란트,8:00:00,2,70,,2,65,109,
105,,,대구광역시 남구 대명남로 115,20:30:00,20,0,20:00:00,35.83514269,128.5709026,50,운남차정,9:15:00,2,75,,2,65,110,
106,,,대구광역시 중구 달구벌대로 2113-2,21:00:00,25,0,20:30:00,35.86553048,128.594954,50,글루미,9:00:00,0,15,,1,30,111,
107,,,대구광역시 중구 동성로1길 72 1층 버터풀하우스,22:00:00,10,0,21:30:00,35.86527178,128.5970142,25,버터풀하우스,7:30:00,1,30,,0,15,112,
108,,,"대구광역시 중구 공평로 79 . 1층,2층(동문동)",22:30:00,25,0,22:30:00,35.87116704,128.6004073,60,이얼즈,8:30:00,1,45,,1,40,113,
109,,,대구광역시 동구 팔공로 400-6,21:30:00,10,0,21:00:00,35.93440796,128.6450422,65,브런치달랏,8:00:00,2,70,,2,65,114,
110,,,대구광역시 수성구 고모로 188,20:30:00,20,0,20:00:00,35.85674633,128.6797202,50,룰리커피 고모점,9:15:00,2,75,,2,65,115,
111,,,광주광역시 광산구 풍영로101번안길 11 1층 스타롱,21:00:00,25,0,20:30:00,35.18151182,126.8101319,50,스타롱,9:00:00,0,15,,1,30,116,
112,,,광주광역시 광산구 왕버들로289번길 53 휘게,22:00:00,10,0,21:30:00,35.19743833,126.8421153,25,휘게,7:30:00,1,30,,0,15,117,
113,,,광주광역시 서구 천변좌하로 192,22:30:00,25,0,22:30:00,35.15583598,126.8378233,60,퍼니스 카페앤라운지,8:30:00,1,45,,1,40,118,
114,,,광주광역시 서구 유림로50번길 9 1층 로지에,21:30:00,10,0,21:00:00,35.16688061,126.8647089,65,로지에,8:00:00,2,70,,2,65,119,
115,,,광주광역시 북구 자미로66번길 7-7,20:30:00,20,0,20:00:00,35.17190165,126.905394,50,우든버러,9:15:00,2,75,,2,65,120,
116,,,광주광역시 북구 문산로74번길 32 1층,21:00:00,25,0,20:30:00,35.18689772,126.9264644,50,카페인,9:00:00,0,15,,1,30,121,
117,,,광주광역시 동구 지호로 161-7,22:00:00,10,0,21:30:00,35.15002907,126.9451052,25,커볶,7:30:00,1,30,,0,15,122,
118,,,광주광역시 서구 경열로 6-1 2층,22:30:00,25,0,22:30:00,35.15291269,126.8877237,60,부부더상록,8:30:00,1,45,,1,40,123,
119,,,광주광역시 서구 상무민주로 12 103호,21:30:00,10,0,21:00:00,35.1516657,126.8586478,65,에스프레소 수묵,8:00:00,2,70,,2,65,124,
120,,,광주광역시 광산구 풍영로200번길 75 1층 퀸즈퀸즈,20:30:00,20,0,20:00:00,35.18986236,126.8183219,50,퀸즈퀸즈,9:15:00,2,75,,2,65,125,
121,,,"광주광역시 광산구 하완길 26-12 1층, 2층",21:00:00,25,0,20:30:00,35.20173027,126.8251677,50,크림집,9:00:00,0,15,,1,30,126,
122,,,광주광역시 서구 상무누리로 15 1층,22:00:00,10,0,21:30:00,35.14432971,126.8400883,25,카페304 상무본점,7:30:00,1,30,,0,15,127,
123,,,광주광역시 광산구 장신로 280-16 1층 딸고라떼,22:30:00,25,0,22:30:00,35.19120164,126.8422906,60,딸고라떼 광주신창점,8:30:00,1,45,,1,40,128,
124,,,광주광역시 서구 상무대로1005번길 27 1층 등화,21:30:00,10,0,21:00:00,35.15427555,126.8716572,65,등화,8:00:00,2,70,,2,65,129,
125,,,광주광역시 남구 제중로 77 호남신학대학교 도서관 1층,20:30:00,20,0,20:00:00,35.14011029,126.9105687,50,파세아르,9:15:00,2,75,,2,65,130,
126,,,광주광역시 광산구 수완로9번길 22-1,21:00:00,25,0,20:30:00,35.1848029,126.8268274,50,그런느낌,9:00:00,0,15,,1,30,131,
127,,,광주광역시 광산구 임방울대로 611-25 세컨드원 광주수완점,22:00:00,10,0,21:30:00,35.21284001,126.8250128,25,세컨드원 광주수완점,7:30:00,1,30,,0,15,132,
128,,,광주광역시 동구 동명로14번길 6 1층,22:30:00,25,0,22:30:00,35.15011747,126.9237436,60,피스커피랩,8:30:00,1,45,,1,40,133,
129,,,광주광역시 동구 동명로14번길 9 1층,21:30:00,10,0,21:00:00,35.15027827,126.9241696,65,코다,8:00:00,2,70,,2,65,134,
130,,,광주광역시 동구 장동로 36 코코로나인,20:30:00,20,0,20:00:00,35.14770711,126.925574,50,코코로나인,9:15:00,2,75,,2,65,135,
131,2024-10-04 18:57:37.000000,2024-10-12 17:02:59.530807,대전광역시 중구 대종로480번길 15,22:00:00,8,50,21:30:00,36.3277442,127.4272458,55,성심당 본점,9:30:00,0,10,2024-10-25 01:15:00.000000,0,15,136,
132,2024-10-03 17:54:37.000000,,대전광역시 중구 중교로 49 땡큐베리머치,21:00:00,5,0,20:00:00,36.32593987,127.4251216,50,땡큐베리머치,9:00:00,0,5,2024-10-25 12:45:00.000000,0,11,137,
133,2024-10-11 11:17:42.000000,,"대전광역시 서구 대덕대로 200 (둔산동), 1층",22:00:00,8,0,20:00:00,36.35064367,127.3784971,40,스타벅스 둔산대덕대로점,8:30:00,0,20,2024-10-25 08:22:00.000000,0,20,138,
134,2024-09-30 19:17:43.000000,,대전광역시 중구 대흥로121번길 30-3 2층,21:00:00,2,10,20:30:00,36.32494531,127.4251285,14,카페그려,8:30:00,0,28,2024-10-25 14:50:00.000000,0,20,139,
135,2024-09-07 12:51:19.000000,,"대전광역시 중구 선화서로 29 1층, 지하",21:00:00,3,1,20:30:00,36.32639962,127.4186985,10,램키드,9:00:00,1,35,2024-10-26 17:03:00.000000,1,34,140,
136,2024-10-07 01:17:42.000000,,대전광역시 대덕구 대청로 152,22:00:00,17,10,21:30:00,36.4491109,127.4418389,40,투썸플레이스 신탄진대청호점,8:30:00,1,42,2024-10-26 21:35:00.000000,1,44,141,
137,2024-09-11 20:44:36.000000,,대전광역시 중구 중앙로 28 센트럴스타클래스,23:00:00,6,9,22:00:00,36.32240049,127.4153837,12,이디야커피 대전문화동점,8:00:00,1,44,2024-10-26 00:05:00.000000,1,50,142,
138,2024-10-10 05:18:20.000000,,대전광역시 대덕구 송촌북로36번길 36 1층 (송촌동),0:00:00,18,2,23:30:00,36.36614071,127.4380441,38,스타벅스 대전송촌점,8:30:00,1,50,2024-10-26 05:48:00.000000,1,49,143,
139,2024-09-28 09:17:43.000000,,대전광역시 서구 계룡로 618,1:00:00,23,7,0:30:00,36.33970024,127.3908993,42,메가MGC커피 대전용문역점,9:30:00,1,55,2024-10-27 09:27:00.000000,1,57,144,
140,2024-10-21 00:02:27.000000,,대전광역시 서구 계룡로407번길 37,22:00:00,10,9,21:30:00,36.35202525,127.3717858,18,하치카페,10:00:00,1,58,2024-10-27 13:14:00.000000,1,58,145,
141,2024-10-13 10:15:38.000000,,대전광역시 중구 중앙로 137 1층,23:00:00,31,3,22:00:00,36.32852005,127.4248368,50,카운트 커피 선화,8:30:00,1,63,2024-10-27 18:22:00.000000,1,63,146,
142,2024-09-20 08:24:35.000000,,대전광역시 대덕구 한남로 135 1층 konercafe,0:00:00,28,4,23:30:00,36.34771762,127.4155317,43,코너카페,10:30:00,2,67,2024-10-27 22:09:00.000000,2,67,147,
143,2024-09-27 03:41:56.000000,,대전광역시 서구 계룡로 382-4 1층 miocoffeebar,21:00:00,28,8,20:30:00,36.35162981,127.3700714,40,miocoffeebar,9:30:00,2,70,2024-10-28 00:20:00.000000,2,70,148,
144,2024-09-18 12:56:59.000000,,대전광역시 유성구 문지로299번길 56 (문지동),22:00:00,22,9,21:00:00,36.39246417,127.405518,31,스타벅스 대전문지점,8:30:00,2,73,2024-10-28 07:33:00.000000,2,73,149,
145,2024-10-09 19:33:58.000000,,대전광역시 중구 중앙로 132 1층 카페 커닝,22:00:00,35,9,22:00:00,36.32797818,127.4245552,47,커닝,9:30:00,2,76,2024-10-28 09:48:00.000000,2,76,150,
146,2024-09-13 18:22:41.000000,,대전광역시 대덕구 오정로63번길 1 해요,21:00:00,7,4,20:30:00,36.35216687,127.4105597,9,해요,8:30:00,2,80,2024-10-28 10:11:00.000000,2,80,151,
147,2024-10-06 17:56:18.000000,,"대전광역시 중구 대흥로169번길 15 1, 2층",21:00:00,32,7,20:30:00,36.325795,127.4301858,36,쎄그하우스,9:00:00,2,83,2024-10-28 15:02:00.000000,2,90,152,
148,2024-10-14 20:33:49.000000,2024-11-02 22:41:40.893816,대전광역시 대덕구 한남로 34,23:00:00,25,4,22:30:00,36.35121951,127.424475,30,이디야커피 대전한남대점,10:00:00,2,88,2024-10-28 18:47:00.000000,2,85,153,
149,2024-09-16 07:02:36.000000,,"대전광역시 중구 계룡로 878 (오류동), 1층",21:00:00,13,6,20:30:00,36.32310177,127.4112718,15,스타벅스 서대전네거리점,10:30:00,2,91,2024-10-28 20:15:00.000000,2,91,154,
150,2024-09-01 04:13:21.000000,,대전광역시 중구 중앙로138번길 48,22:00:00,46,8,21:00:00,36.32632325,127.4258517,52,투썸플레이스 대전대흥센텀시티점,8:30:00,2,92,2024-10-28 22:58:00.000000,2,90,155,
151,2024-10-04 16:21:09.000000,,울산광역시 울주군 상북면 명촌길천로 23 농도,22:30:00,21,1,22:00:00,35.55871308,129.0833139,23,농도,9:00:00,2,94,2024-10-25 00:00:00.000000,2,94,156,
152,2024-10-26 05:43:39.000000,2024-11-02 03:01:21.258296,울산광역시 중구 중앙3길 17 1층,21:00:00,42,3,20:30:00,35.55466133,129.3166502,42,에낭,8:00:00,2,95,2024-10-25 01:15:00.000000,2,100,157,
153,2024-10-11 11:52:21.000000,2024-11-02 22:17:47.444376,울산광역시 북구 판지1길 30,23:00:00,54,11,22:30:00,35.61350188,129.4549572,56,라 메르 판지,9:00:00,2,98,2024-10-25 02:22:00.000000,2,98,158,
154,2024-09-30 03:57:23.000000,,울산광역시 북구 동해안로 831-52 아비아채하사정1920,22:30:00,0,9,22:00:00,35.57797093,129.4497917,25,아비아채 하사정1920,9:00:00,0,0,2024-10-25 03:29:00.000000,0,0,159,
155,2024-09-02 19:30:48.000000,,울산광역시 남구 월평로221번길 8 1층 102호,21:00:00,2,5,20:30:00,35.54768865,129.3288339,35,스웻츠,9:30:00,0,6,2024-10-25 04:48:00.000000,0,6,160,
156,2024-09-06 09:13:51.000000,,울산광역시 중구 성안12길 45 (성안동),22:30:00,1,10,22:00:00,35.57793898,129.3242023,28,스타벅스 울산성안점,8:00:00,0,7,2024-10-25 05:54:00.000000,0,7,161,
157,2024-09-21 02:31:44.000000,,울산광역시 북구 명촌로 44,19:00:00,2,7,19:00:00,35.55625211,129.356658,30,투썸플레이스 울산명촌점,9:30:00,0,8,2024-10-25 06:01:00.000000,0,8,162,
158,2024-09-03 21:44:16.000000,,울산광역시 북구 동해안로 1414 uuuu,23:00:00,5,6,19:30:00,35.61366945,129.4506189,58,유유유유,10:00:00,0,9,2024-10-25 07:18:00.000000,0,9,163,
159,2024-10-19 04:26:33.000000,,울산광역시 울주군 온양읍 남창1길 25-1 1층,21:00:00,6,6,20:30:00,35.41836599,129.2813251,48,메가MGC커피 울산남창역점,8:30:00,0,13,2024-10-25 08:22:00.000000,0,13,164,
160,2024-09-15 01:32:28.000000,,울산광역시 중구 종가6길 12 1층,22:00:00,10,4,21:30:00,35.56330645,129.3122689,59,디저트39 울산우정혁신점,10:30:00,0,17,2024-10-25 09:31:00.000000,0,17,165,
161,2024-10-01 05:59:15.000000,,울산광역시 중구 화진4길 91-2 주차장주소: 태화동 33-2번지,23:00:00,1,4,22:30:00,35.55455926,129.3040009,10,BCD COFFEE,10:30:00,0,18,2024-10-25 10:35:00.000000,0,18,166,
162,2024-10-17 07:48:24.000000,,울산광역시 울주군 범서읍 점촌1길 18-13,23:00:00,9,4,22:30:00,35.5755967,129.2384098,47,투썸플레이스 울산구영점,10:30:00,0,21,2024-10-25 11:43:00.000000,0,21,167,
163,2024-09-26 20:43:19.000000,,울산광역시 남구 삼산로278번길 8,22:30:00,6,8,22:00:00,35.53848231,129.3372994,25,스타벅스 울산삼산로점,9:30:00,0,24,2024-10-25 12:50:00.000000,0,24,168,
164,2024-09-25 18:50:15.000000,,울산광역시 울주군 온산읍 덕망로 76-1 1층,22:00:00,7,8,22:00:00,35.43944212,129.3062622,31,하삼동커피 울산덕신점,10:30:00,0,25,2024-10-25 13:11:00.000000,0,25,169,
165,2024-10-03 06:36:08.000000,,울산광역시 남구 삼산로301번길 8-1 1층,22:00:00,10,9,21:30:00,35.54130376,129.340268,38,카페멜리어스,8:30:00,0,27,2024-10-25 14:50:00.000000,0,27,170,
166,2024-09-19 14:05:45.000000,,울산광역시 북구 신기17길 3 1~2층,22:30:00,13,0,22:00:00,35.610059,129.3798152,43,할리스 울산매곡점,9:00:00,0,31,2024-10-25 15:03:00.000000,0,31,171,
167,2024-10-05 07:42:41.000000,,울산광역시 남구 돋질로306번길 24 1층 샌디레이크 울산 삼산점,20:00:00,1,0,20:00:00,35.54143246,129.3378288,5,샌디레이크 울산삼산점,8:00:00,1,37,2024-10-25 16:40:00.000000,1,37,172,
168,2024-09-14 22:57:50.000000,,울산광역시 울주군 서생면 잿골길 72,21:30:00,16,2,21:00:00,35.3687349,129.3480076,44,헤이메르,9:00:00,1,38,2024-10-25 17:03:00.000000,1,38,173,
169,2024-09-12 12:59:35.000000,,울산광역시 남구 삼산로278번길 4,22:30:00,18,1,22:00:00,35.53876219,129.3372755,48,빽다방 울산삼산롯데점,10:00:00,1,39,2024-10-25 18:12:00.000000,1,39,174,
170,2024-10-24 01:28:44.000000,,경상북도 경주시 경감로 375-16,22:30:00,13,1,22:00:00,35.84510502,129.2718336,32,엘로우,8:00:00,1,41,2024-10-25 19:45:00.000000,1,41,175,
171,2024-10-12 20:33:31.000000,,경상북도 포항시 남구 송도해안길 54 (송도동),21:30:00,6,9,21:00:00,36.03566973,129.379512,14,스타벅스 포항송도점,8:30:00,1,46,2024-10-25 20:57:00.000000,1,46,176,
172,2024-09-09 09:22:30.000000,,경상북도 경주시 사정로57번길 7-6,20:30:00,16,9,20:00:00,35.83736905,129.2090553,35,올리브,9:30:00,1,48,2024-10-25 21:25:00.000000,1,48,177,
173,2024-10-02 17:09:24.000000,,경상남도 창원시 마산합포구 월영동서로 20 투썸플레이스 마산해운동점,20:00:00,14,5,20:00:00,35.17988448,128.5603844,29,투썸플레이스 마산해운동점,10:00:00,1,49,2024-10-25 22:31:00.000000,1,49,178,
174,2024-09-08 11:19:58.000000,,경상남도 창원시 진해구 태평로 132,22:00:00,21,8,21:30:00,35.14167496,128.6707497,42,할리스 진해속천점,10:30:00,1,51,2024-10-25 23:42:00.000000,1,51,179,
175,2024-09-24 02:28:44.000000,,경상북도 안동시 육사로 327 (법흥동),22:30:00,23,2,22:00:00,36.56228446,128.739823,46,스타벅스 안동강변DT점,8:30:00,1,52,2024-10-26 00:05:00.000000,1,52,180,
176,2024-10-22 22:43:01.000000,,경상북도 포항시 북구 송라면 동해대로 3310 러블랑,20:30:00,9,8,20:00:00,36.25819794,129.3737898,17,러블랑,9:00:00,1,53,2024-10-26 00:20:00.000000,1,53,181,
177,2024-09-17 23:15:06.000000,,경상북도 경주시 황성로 15,20:00:00,31,2,20:00:00,35.86483652,129.2136082,57,메가MGC커피 경주황성점,8:30:00,1,56,2024-10-26 01:18:00.000000,1,56,182,
178,2024-09-04 01:54:11.000000,,경상북도 경주시 한국관광1번로 34 아덴카페,20:30:00,26,7,20:00:00,35.84313584,129.2835964,46,아덴,9:00:00,1,57,2024-10-26 02:31:00.000000,1,57,183,
179,2024-09-15 14:23:37.000000,,경상북도 포항시 북구 해안로 93 1층 투썸플레이스,21:30:00,31,1,21:00:00,36.05716152,129.3777947,54,투썸플레이스 포항영일대점,10:00:00,1,59,2024-10-26 03:44:00.000000,1,59,184,
180,2024-10-01 10:45:27.000000,,경상북도 문경시 산양면 불암2길 14-5,21:30:00,28,7,21:00:00,36.61226776,128.2586047,48,산양정행소,8:30:00,1,60,2024-10-26 04:10:00.000000,1,60,185,
181,2024-09-29 08:12:59.000000,,경상남도 통영시 광도면 죽림3로 43 강남빌딩 108호,21:00:00,22,0,20:30:00,34.88271312,128.4184531,36,매머드익스프레스 통영죽림점,8:30:00,1,62,2024-10-26 05:18:00.000000,1,62,186,
182,2024-10-06 15:37:22.000000,,경상북도 문경시 산양면 현리3길 9,20:00:00,37,0,19:30:00,36.63912171,128.2561477,57,화수헌,9:30:00,1,65,2024-10-26 06:48:00.000000,1,65,187,
183,2024-09-18 21:25:18.000000,,경상남도 거제시 아주1로2길 58 1층 투썸플레이스 거제아주점,21:00:00,11,5,20:30:00,34.86728167,128.6859628,19,투썸플레이스 거제아주점,7:30:00,1,68,2024-10-26 07:50:00.000000,1,63,188,
184,2024-10-04 11:47:10.000000,,경상남도 김해시 김해대로2301번길 11 퓨어오버,22:00:00,57,4,21:30:00,35.22708674,128.8783029,84,퓨어오버,8:00:00,1,69,2024-10-26 08:55:00.000000,1,69,189,
185,2024-09-26 05:19:00.000000,,경상북도 경산시 남산면 어봉지길 251-90 복합문화공간 브리프저니,23:00:00,23,0,22:30:00,35.79415052,128.797661,33,브리프저니,9:00:00,1,72,2024-10-26 09:33:00.000000,1,72,190,
186,2024-10-10 18:33:52.000000,,경상남도 진주시 진주대로829번길 2 (주약동),0:00:00,32,6,23:30:00,35.17485975,128.0928827,49,스타벅스 진주칠암DT점,8:30:00,1,74,2024-10-26 10:40:00.000000,1,66,191,
187,2024-09-13 16:02:43.000000,,경상북도 영주시 번영로 158 고릴라커피,1:00:00,58,8,0:30:00,36.82520995,128.6249011,76,고릴라커피,7:00:00,2,77,2024-10-26 11:15:00.000000,2,77,192,
188,2024-09-22 22:44:19.000000,,경상남도 남해군 남면 남면로679번길 31-13 1층,23:00:00,11,4,22:30:00,34.72665696,127.8937148,15,고운동커피 남해점,10:00:00,2,79,2024-10-26 12:00:00.000000,2,79,193,
189,2024-09-30 13:58:41.000000,,경상남도 창원시 성산구 성산패총로 182 (가음정동),0:00:00,21,9,23:00:00,35.20957808,128.6836759,27,스타벅스 창원대로DT점,7:30:00,2,81,2024-10-26 13:22:00.000000,2,81,194,
190,2024-10-11 09:11:55.000000,,경상남도 진주시 순환로 539,23:30:00,45,1,23:00:00,35.17208402,128.0606719,60,빽다방 진주평거점,9:00:00,2,82,2024-10-26 14:45:00.000000,2,76,195,
191,2024-09-27 12:50:30.000000,,전북특별자치도 군산시 중앙로 177 이성당,19:00:00,15,4,19:00:00,35.98712752,126.7112136,18,이성당,8:00:00,2,85,2024-10-26 15:48:00.000000,2,88,196,
192,2024-10-02 07:21:14.000000,,전북특별자치도 전주시 완산구 전동성당길 100 1층 2층,21:00:00,62,9,21:00:00,35.81451288,127.1488516,72,마시랑게,10:00:00,2,87,2024-10-26 16:05:00.000000,2,87,197,
193,2024-10-08 19:34:06.000000,,전라남도 여수시 이순신광장로 192 (종화동),23:00:00,20,4,22:30:00,34.73834047,127.7442284,23,스타벅스 여수해양공원점,9:30:00,2,89,2024-10-26 17:18:00.000000,2,89,198,
194,2024-09-20 03:12:17.000000,,전라남도 여수시 돌산읍 향일암로 70-5,23:30:00,41,3,23:00:00,34.59469433,127.804291,45,이디야커피 여수향일암점,7:00:00,2,93,2024-10-26 18:22:00.000000,2,93,199,
195,2024-09-25 17:09:58.000000,,전북특별자치도 익산시 선화로21길 16-8 1층,23:30:00,86,4,23:00:00,35.95344664,126.9449144,90,시트러스,8:30:00,2,96,2024-10-26 19:34:00.000000,2,96,200,
196,2024-10-05 04:38:47.000000,,전북특별자치도 전주시 덕진구 가련산로 20,23:00:00,4,0,22:30:00,35.84133886,127.1112825,5,투썸플레이스 전주하가점,9:00:00,2,97,2024-10-26 20:57:00.000000,2,97,201,
197,2024-10-03 23:47:15.000000,,전라남도 목포시 텃골로13번길 76 1층,22:00:00,1,4,21:30:00,34.81632564,126.4184418,41,메가MGC커피 목포상동중앙점,8:00:00,0,4,2024-10-26 21:43:00.000000,0,4,202,
198,2024-09-19 06:21:33.000000,,전라남도 여수시 돌산읍 무술목길 50 모이핀,19:00:00,1,5,19:00:00,34.6878465,127.7790807,63,모이핀 오션점,7:30:00,0,2,2024-10-26 22:02:00.000000,0,2,203,
199,2024-09-14 11:45:31.000000,,전북특별자치도 전주시 덕진구 명륜4길 12 (덕진동1가),23:00:00,2,0,22:00:00,35.84296538,127.1268174,22,스타벅스 전북대점,9:30:00,0,12,2024-10-26 23:05:00.000000,0,12,204,
200,2024-09-29 08:12:44.000000,,전라남도 구례군 구례읍 산업로 270 라플라타 카페,23:30:00,5,7,23:00:00,35.18505079,127.4654209,38,라플라타,10:00:00,0,15,2024-10-27 00:10:00.000000,0,15,205,
201,2024-10-05 22:17:52.000000,,전라남도 여수시 소호로 490 돌고래빌딩 1층,22:00:00,4,7,21:30:00,34.74571529,127.6544792,12,투썸플레이스 소호동동다리점,8:00:00,1,36,2024-10-27 01:12:00.000000,1,36,206,
202,2024-09-19 19:23:11.000000,,전북특별자치도 부안군 진서면 청자로 1076 슬지제빵소,20:00:00,31,6,20:00:00,35.59470761,126.6182652,74,슬지제빵소,9:30:00,1,43,2024-10-27 02:15:00.000000,1,43,207,
203,2024-10-07 14:56:27.000000,,전북특별자치도 전주시 완산구 팔달로 123 (전동),21:00:00,34,4,21:30:00,35.81344592,127.1485234,58,스타벅스 전주한옥마을점,10:00:00,1,59,2024-10-27 03:05:00.000000,1,59,208,
204,2024-09-23 06:43:10.000000,,전북특별자치도 전주시 덕진구 원동로 16,21:00:00,24,3,21:00:00,35.85136467,127.0360937,39,디오니카페,7:00:00,1,62,2024-10-27 04:12:00.000000,1,62,209,
205,2024-10-03 15:19:08.000000,,전라남도 나주시 배멧3길 5-4 1층 할리스커피,19:00:00,61,0,18:30:00,35.01888765,126.7857125,97,할리스 나주빛가람혁신도시점,8:30:00,1,74,2024-10-27 05:15:00.000000,1,63,210,
206,2024-09-18 12:54:38.000000,,전라남도 여수시 돌산읍 우두3길 98 프롬나드,20:00:00,16,6,19:30:00,34.71885241,127.7450163,20,프롬나드,9:00:00,2,80,2024-10-27 06:18:00.000000,2,80,211,
207,2024-09-26 23:08:29.000000,,전북특별자치도 전주시 덕진구 동부대로 1145,21:00:00,52,9,20:30:00,35.86939509,127.1218016,62,투썸플레이스 전주송천점,7:30:00,2,84,2024-10-27 07:22:00.000000,2,84,212,
208,2024-10-11 17:41:02.000000,,전라남도 목포시 영산로75번길 14 1층,22:00:00,42,2,21:30:00,34.79037896,126.3845151,47,씨엘비베이커리,8:30:00,2,91,2024-10-27 08:20:00.000000,2,91,213,
209,2024-09-27 01:15:39.000000,,전라남도 순천시 왕지2길 17 (왕지동),20:00:00,81,45,19:30:00,34.96816226,127.5232281,88,스타벅스 순천호수공원점,9:00:00,2,93,2024-10-27 09:35:00.000000,2,93,214,
210,2024-10-02 09:57:46.000000,2024-11-02 22:30:43.672627,전북특별자치도 김제시 금구면 대화1길 95 카페 대율담,20:30:00,15,31,20:00:00,35.79097184,127.038657,16,대율담,7:00:00,2,96,2024-10-27 10:50:00.000000,2,96,215,
211,2024-09-21 10:24:53.000000,,강원특별자치도 춘천시 신북읍 신샘밭로 674,21:00:00,5,10,20:30:00,37.92959097,127.7845168,36,감자밭,8:00:00,0,14,2024-10-27 11:43:00.000000,0,14,216,
212,2024-10-09 20:17:31.000000,,강원특별자치도 강릉시 난설헌로 232 카페 툇마루,21:30:00,20,60,21:00:00,37.79285288,128.9145306,79,카페 툇마루,10:00:00,0,26,2024-10-27 12:22:00.000000,0,26,217,
213,2024-09-30 13:18:42.000000,,강원특별자치도 강릉시 구정면 현천길 7,22:00:00,8,5,21:30:00,37.69649848,128.8920265,25,테라로사 커피공장 강릉본점,9:30:00,1,34,2024-10-27 13:17:00.000000,1,34,218,
214,2024-10-06 04:43:56.000000,,강원특별자치도 홍천군 홍천읍 홍천로 292,22:30:00,35,90,22:00:00,37.68861019,127.8776895,91,스타벅스 홍천DT점,8:00:00,1,39,2024-10-27 14:02:00.000000,1,39,219,
215,2024-09-25 18:31:37.000000,,강원특별자치도 춘천시 동면 순환대로 1154-97,23:00:00,24,20,22:30:00,37.8913873,127.7764949,53,산토리니,7:30:00,1,47,2024-10-27 15:15:00.000000,1,47,220,
216,2024-09-28 09:45:21.000000,,강원특별자치도 강릉시 창해로350번길 3 (강문동),23:30:00,7,15,23:00:00,37.79475789,128.9185378,14,스타벅스 강릉강문해변점,9:00:00,1,52,2024-10-27 16:02:00.000000,1,52,221,
217,2024-10-08 12:10:29.000000,,강원특별자치도 원주시 지정면 소금산길 155,0:00:00,43,75,23:30:00,37.36809244,127.8216602,80,투썸플레이스 원주소금산그랜드밸리점,10:00:00,1,54,2024-10-27 17:34:00.000000,1,54,222,
218,2024-10-03 11:47:35.000000,,강원특별자치도 속초시 설악산로 108 카페설악산로,0:30:00,18,35,0:00:00,38.16180709,128.5964059,29,카페 설악산로,7:30:00,1,64,2024-10-27 18:48:00.000000,1,64,223,
219,2024-09-22 02:04:12.000000,,강원특별자치도 춘천시 강원대학길 1 학생회관(두리관) 1층,1:00:00,43,25,0:30:00,37.86799562,127.7483798,66,투썸플레이스 춘천강원대학교두리관점,9:30:00,1,66,2024-10-27 19:25:00.000000,1,66,224,
220,2024-10-01 06:28:46.000000,,강원특별자치도 속초시 해오름로 137,20:00:00,6,85,19:30:00,38.18681274,128.604975,9,이디야 속초해수욕장점,8:30:00,1,71,2024-10-27 20:15:00.000000,1,71,225,
221,2024-09-17 14:22:33.000000,,강원특별자치도 원주시 지정면 지정로 1101,20:30:00,42,50,20:00:00,37.37066093,127.7964903,54,스톤크릭,9:00:00,2,79,2024-10-27 21:18:00.000000,2,79,226,
222,2024-10-04 18:15:44.000000,2024-11-02 22:47:52.983941,강원특별자치도 속초시 미시령로2983번길 111 (장사동),21:00:00,70,1,20:30:00,38.21015953,128.5273888,83,스타벅스 설악쏘라노점,10:00:00,2,85,2024-10-27 22:20:00.000000,2,85,227,
223,2024-09-24 07:29:14.000000,,"강원특별자치도 춘천시 동면 순환대로 1154-117 3, 4층",21:30:00,40,40,21:00:00,37.89338782,127.7771623,43,이디야커피 춘천구봉산전망대점,7:00:00,2,94,2024-10-27 23:29:00.000000,2,94,228,
224,2024-10-10 23:32:50.000000,2024-11-03 02:55:56.822528,강원특별자치도 홍천군 서면 팔봉강변길 303 까로치아카페 홍천점,22:00:00,68,96,21:30:00,37.69846212,127.7024238,69,까로치아카페 홍천점,8:30:00,2,99,2024-10-28 00:05:00.000000,2,99,229,
225,2024-09-29 03:45:19.000000,,강원특별자치도 횡성군 횡성읍 앞들서3로 5 2층,22:30:00,0,80,22:00:00,37.49093363,127.9790546,23,투썸플레이스 횡성점,9:30:00,0,1,2024-10-28 01:45:00.000000,0,1,230,
226,2024-10-05 14:53:26.000000,,강원특별자치도 동해시 해안로 368,23:00:00,1,55,22:30:00,37.53499271,129.114808,50,할리스 동해묵호점,7:30:00,0,3,2024-10-28 02:10:00.000000,0,3,231,
227,2024-09-15 16:18:35.000000,,강원특별자치도 속초시 장사항해안길 25 카페코엘,23:30:00,1,70,23:00:00,38.22394322,128.5890546,17,Cafe COEL,8:00:00,0,9,2024-10-28 03:25:00.000000,0,9,232,
228,2024-10-07 05:12:03.000000,,강원특별자치도 원주시 남원로 588 (명륜동),0:00:00,7,65,23:30:00,37.33603496,127.9498507,78,스타벅스 원주명륜DT점,10:00:00,0,10,2024-10-28 04:35:00.000000,0,10,233,
229,2024-09-16 21:37:22.000000,,"강원특별자치도 춘천시 퇴계로 9 1층, 2층",0:30:00,11,5,0:00:00,37.86672359,127.7232824,60,투썸플레이스 춘천KBS사거리점,7:30:00,0,19,2024-10-28 05:45:00.000000,0,19,234,
230,2024-10-02 02:56:57.000000,,강원특별자치도 속초시 바람꽃마을1길 38,1:00:00,2,100,0:30:00,38.19692434,128.5308083,11,시드누아 속초점,9:00:00,0,23,2024-10-28 06:55:00.000000,0,23,235,
231,2024-09-28 19:45:30.000000,,충청남도 공주시 반포면 불장골길 113-12 엔학고레,20:00:00,28,15,19:30:00,36.39806466,127.2657627,95,엔학고레,8:30:00,0,30,2024-10-28 07:33:00.000000,0,30,236,
232,2024-10-11 10:28:16.000000,,충청남도 보령시 머드로 114 (신흑동),20:30:00,10,85,20:00:00,36.31492388,126.5120868,32,스타벅스 대천해수욕장점,9:30:00,0,32,2024-10-28 08:45:00.000000,0,32,237,
233,2024-09-26 12:31:51.000000,,충청북도 청주시 상당구 남일면 가좌신송로 190-53 엔트라포레,21:00:00,23,35,20:30:00,36.56952221,127.4791754,57,엔트라포레,10:00:00,1,41,2024-10-28 09:12:00.000000,1,41,238,
234,2024-10-04 08:17:48.000000,,충청북도 공주시 반포면 임금봉길 88-27,21:30:00,11,20,21:00:00,36.36617308,127.2514671,26,에어산,7:00:00,1,45,2024-10-28 10:11:00.000000,1,45,239,
235,2024-09-30 16:27:53.000000,,충청북도 청주시 서원구 남이면 청남로 1388-36,22:00:00,42,50,21:30:00,36.56710428,127.453153,85,트리브링,9:00:00,1,50,2024-10-28 11:25:00.000000,1,50,240,
236,2024-10-09 23:34:08.000000,,충청남도 태안군 태안읍 서해로 1935 1층,22:30:00,30,45,22:00:00,36.75274683,126.3200721,49,투썸플레이스 태안만남의광장DT점,8:30:00,1,63,2024-10-28 12:30:00.000000,1,63,241,
237,2024-09-21 13:56:24.000000,,충청북도 진천군 이월면 진광로 928-27 뤁스퀘어,23:00:00,13,10,22:30:00,36.94220097,127.4296181,18,뤁스퀘어,8:00:00,2,75,2024-10-28 13:40:00.000000,2,75,242,
238,2024-10-06 20:47:01.000000,,충청북도 청주시 서원구 내수동로 113 (사창동),23:30:00,61,95,23:00:00,36.63399411,127.4597072,70,스타벅스 충북대점,9:00:00,2,88,2024-10-28 14:52:00.000000,2,88,243,
239,2024-10-03 04:15:32.000000,2024-11-02 22:17:50.811880,충청남도 당진시 신평면 매산해변길 144 해어름,0:00:00,30,76,23:30:00,36.93024901,126.8065637,31,해어름,10:00:00,2,97,2024-10-28 15:02:00.000000,2,97,244,
240,2024-09-20 11:52:47.000000,2024-11-03 02:02:34.435589,충청북도 청주시 청원구 오창읍 양청택지로 116 1층,0:30:00,92,5,0:00:00,36.71621062,127.4216116,92,잇츠베이글,7:30:00,2,100,2024-10-28 16:10:00.000000,2,100,245,
241,2024-10-01 07:41:15.000000,,충청북도 옥천군 옥천읍 송신길 172 할리스 충북옥천점,1:00:00,18,60,0:30:00,36.29162383,127.5795497,45,할리스 충북옥천점,8:30:00,1,42,2024-10-28 17:20:00.000000,1,40,246,
242,2024-09-18 20:27:19.000000,,충청남도 천안시 동남구 유량로 195 랜드마크195,20:00:00,2,80,19:30:00,36.8130684,127.1798708,61,랜드마크195,9:30:00,0,4,2024-10-28 18:47:00.000000,0,4,247,
243,2024-10-08 15:38:56.000000,,충청북도 단양군 단양읍 삼봉로 282-1 1층,20:30:00,0,25,20:00:00,36.98195719,128.3692723,7,메가MGC커피 충북단양점,8:00:00,0,8,2024-10-28 19:15:00.000000,0,8,248,
244,2024-09-25 09:31:23.000000,,충청북도 충주시 호암수청2로 15 유안빌딩 1층,21:00:00,4,90,20:30:00,36.95661876,127.9238566,40,투썸플레이스 충주호암점,7:00:00,0,11,2024-10-28 20:58:00.000000,0,11,249,
245,2024-10-10 21:14:37.000000,,충청남도 예산군 봉산면 봉산로 516 백설농부,21:30:00,22,55,21:00:00,36.76161812,126.6819886,68,백설농부,9:30:00,0,33,2024-10-28 21:30:00.000000,0,33,250,
246,2024-09-22 17:43:29.000000,,충청북도 청주시 상당구 목련로 106-22 공간조경 1동 1~2층,22:00:00,4,40,21:30:00,36.60104102,127.5161319,13,베이커리카페 공간,7:30:00,1,37,2024-10-28 22:45:00.000000,1,37,251,
247,2024-09-19 05:58:10.000000,,충청남도 천안시 서북구 백석로 85-4 (백석동),22:30:00,34,100,22:00:00,36.82380582,127.1215864,76,스타벅스 천안백석점,8:30:00,1,45,2024-10-28 23:29:00.000000,1,45,252,
248,2024-10-05 18:21:51.000000,,충청북도 제천시 의림대로49길 26,23:00:00,16,15,22:30:00,37.17827238,128.2070965,35,언무드,10:00:00,1,48,2024-10-25 00:12:00.000000,1,48,253,
249,2024-10-07 02:18:35.000000,,충청북도 진천군 덕산읍 연미1길 11,23:30:00,52,30,23:00:00,36.89963967,127.5294943,99,스타벅스 충북혁신덕산점,9:00:00,1,53,2024-10-25 02:15:00.000000,1,53,254,
250,2024-09-23 14:49:42.000000,,충청남도 부여군 부여읍 뒷개로27번길 10-1 무드빌리지,0:00:00,13,85,23:30:00,36.29285933,126.9245034,22,무드빌리지,7:30:00,1,61,2024-10-25 03:40:00.000000,1,61,255,
251,2024-09-16 12:42:37.000000,,세종특별자치시 시청대로 45 (대평동),0:30:00,15,70,0:00:00,36.47609916,127.2774384,24,스타벅스 세종금강DT점,8:30:00,1,65,2024-10-25 04:50:00.000000,1,65,256,
252,2024-09-30 08:15:22.000000,,세종특별자치시 연서면 와룡로 606 제주도화,1:00:00,40,45,0:30:00,36.59762924,127.2277013,56,제주도화,7:00:00,1,72,2024-10-26 01:15:00.000000,1,72,257,
253,2024-10-06 19:07:11.000000,2024-11-02 22:38:43.095040,"세종특별자치시 국세청로 32 B106,107호",22:30:00,11,61,22:00:00,36.4864204,127.2619664,15,이디야커피 세종시광장점,9:30:00,2,78,2024-10-26 02:35:00.000000,2,78,258,
254,2024-10-01 13:45:56.000000,,세종특별자치시 한누리대로 2261,20:30:00,64,40,20:00:00,36.47236823,127.2774949,78,투썸플레이스 세종대평펜트빌점,10:00:00,2,83,2024-10-26 04:10:00.000000,2,83,259,
255,2024-09-29 17:24:43.000000,2024-11-02 22:48:59.098583,세종특별자치시 연서면 안산길 76 에브리선데이 본점,21:00:00,28,6,20:30:00,36.60230347,127.2339311,32,에브리선데이 본점,7:30:00,2,90,2024-10-26 06:50:00.000000,2,90,260,
256,2024-10-03 10:56:48.000000,,세종특별자치시 한누리대로 2165 대방디엠시티 상가 A동 1층 123~126호,23:00:00,61,33,22:30:00,36.47720483,127.2862008,67,싶빵공장 세종보람점,8:00:00,2,92,2024-10-27 08:25:00.000000,2,92,261,
257,2024-09-18 07:37:09.000000,,세종특별자치시 보듬7로 20 (도담동) 헬스케어센터 1층,20:00:00,85,20,19:30:00,36.51951336,127.2579427,90,스타벅스 세종충남대학교병원점,9:00:00,2,95,2024-10-27 09:40:00.000000,2,95,262,
258,2024-10-07 16:29:05.000000,,세종특별자치시 만남로 21,1:00:00,1,12,0:30:00,36.50167943,127.2358683,11,투썸플레이스 세종고운힐데스하임점,7:30:00,0,15,2024-10-27 10:50:00.000000,0,15,263,
259,2024-09-23 21:18:35.000000,,세종특별자치시 나성북1로 51 601동 45층,22:00:00,8,55,21:30:00,36.49231124,127.2605773,48,메타45카페,10:00:00,0,18,2024-10-27 11:45:00.000000,0,18,264,
260,2024-10-05 14:53:27.000000,,"세종특별자치시 아름서1길 13-9 (아름동) 103,104,105,202,203호",23:30:00,6,15,23:00:00,36.5116786,127.2425872,29,스타벅스 세종아름점,8:30:00,0,22,2024-10-27 12:50:00.000000,0,22,265,
261,2024-09-25 11:12:58.000000,,세종특별자치시 남세종로 73 1층,0:00:00,24,10,23:30:00,36.49197562,127.3256641,83,메가MGC커피 세종집현점,7:00:00,0,29,2024-10-28 02:05:00.000000,0,29,266,
262,2024-10-04 09:23:41.000000,,세종특별자치시 금남면 도남2안길 13 카페리즌,0:30:00,13,30,0:00:00,36.43751409,127.2408333,39,카페리즌,9:30:00,1,35,2024-10-28 03:25:00.000000,1,35,267,
263,2024-09-20 06:15:34.000000,,세종특별자치시 시청대로 370 나라키움 세종국책연구단지 근린생활시설,21:30:00,2,25,21:00:00,36.49579698,127.3044653,7,할리스 세종국책연구단지점,9:00:00,1,36,2024-10-28 05:30:00.000000,1,36,268,
264,2024-10-02 05:07:13.000000,,세종특별자치시 금남면 안금로 257,22:30:00,26,45,22:00:00,36.42259325,127.2841056,54,카페용담,7:00:00,1,49,2024-10-28 06:15:00.000000,1,49,269,
265,2024-09-27 23:30:19.000000,,세종특별자치시 소담1로 12 지엘플렉스1 106호 107호 이디야소담동점,20:00:00,37,33,19:30:00,36.48501882,127.3014752,68,이디야커피 세종시소담점,8:00:00,1,55,2024-10-28 07:45:00.000000,1,55,270,
266,2024-10-09 18:42:15.000000,,세종특별자치시 새롬중앙로 64 (새롬동),20:30:00,11,2,20:00:00,36.48664069,127.2510008,19,스타벅스 세종새롬점,10:00:00,1,58,2024-10-28 09:00:00.000000,1,58,271,
267,2024-09-24 15:31:01.000000,,세종특별자치시 금남면 원봉리 575-47,1:00:00,47,4,0:30:00,36.45015225,127.2344729,77,안다미로라움,7:30:00,1,62,2024-10-28 10:30:00.000000,1,62,272,
268,2024-10-11 12:54:23.000000,,세종특별자치시 한누리대로 499 (어진동),23:00:00,17,2,22:30:00,36.50806982,127.2611232,25,스타벅스 세종어진R점,9:00:00,1,69,2024-10-26 12:15:00.000000,1,69,273,
269,2024-09-22 03:43:59.000000,,세종특별자치시 바른3길 46,21:00:00,75,12,20:30:00,36.5203778,127.2525707,99,카페 루트 오,8:30:00,2,76,2024-10-27 14:40:00.000000,2,76,274,
270,2024-10-08 22:17:44.000000,,"세종특별자치시 연동면 태산로 155 1동 1층, 2층, 3층",0:30:00,32,9,0:00:00,36.52159166,127.355093,42,빈스텔라,8:00:00,2,77,2024-10-28 22:05:00.000000,2,77,275,
271,2024-11-01 14:05:41.000000,,제주특별자치도 서귀포시 칠십리로658번길 27-16,21:00:00,25,0,20:30:00,33.24946839,126.6187949,50,테라로사 서귀포점,9:00:00,0,15,,1,30,276,
272,2024-11-01 14:05:46.000000,,제주특별자치도 제주시 구좌읍 비자림로 1202,22:00:00,10,0,21:30:00,33.43367312,126.7332424,25,카페 글렌코,7:30:00,1,30,,0,15,277,
273,2024-11-01 14:05:47.000000,,제주특별자치도 서귀포시 표선면 표선당포로 21-3 1층 표선하다,22:30:00,25,0,22:30:00,33.32645101,126.8446473,60,표선하다,8:30:00,1,45,,1,40,278,
274,2024-11-01 14:06:47.000000,,제주특별자치도 서귀포시 성산읍 동류암로 20 플레이스 내 LOVE동,21:30:00,10,0,21:00:00,33.44986322,126.9181684,65,도렐 제주 본점,8:00:00,2,70,,2,65,279,
275,2024-11-01 14:05:49.000000,,제주특별자치도 제주시 영평길 269 중선농원 커피템플,20:30:00,20,0,20:00:00,33.47816475,126.5702468,50,커피템플,9:15:00,2,75,,2,65,280,
276,2024-11-01 14:05:57.000000,,제주특별자치도 제주시 애월읍 애월해안로 654 가동 1층,21:00:00,25,0,20:30:00,33.47989551,126.3727207,50,노을리,9:00:00,0,15,,1,30,281,
277,2024-11-01 14:05:58.000000,,제주특별자치도 제주시 애월읍 애월북서길 56 하이엔드제주,22:00:00,10,0,21:30:00,33.46358525,126.3091595,25,하이엔드제주,7:30:00,1,30,,0,15,282,
278,2024-11-01 14:06:00.000000,,제주특별자치도 제주시 한림읍 한림로 542-1,22:30:00,25,0,22:30:00,33.40590023,126.2564438,60,우무,8:30:00,1,45,,1,40,283,
279,2024-11-01 14:06:01.000000,,제주특별자치도 서귀포시 대정읍 서삼중로 90 1층,21:30:00,10,0,21:00:00,33.27111143,126.2029883,65,메종메르미누,8:00:00,2,70,,2,65,284,
280,2024-11-01 14:06:03.000000,,제주특별자치도 제주시 애월읍 평화로 1529,20:30:00,20,0,20:00:00,33.36155908,126.3636535,50,새빌,9:15:00,2,75,,2,65,285,
281,2024-11-01 14:06:04.000000,,제주특별자치도 제주시 애월읍 애월해안로 686 3층 LIBOIRE CAFE,21:00:00,25,0,20:30:00,33.48194608,126.3752208,50,리부아르,9:00:00,0,15,,1,30,286,
282,2024-11-01 14:06:05.000000,,제주특별자치도 서귀포시 안덕면 산방로 141,22:00:00,10,0,21:30:00,33.23922351,126.3191906,25,원앤온리,7:30:00,1,30,,0,15,287,
283,2024-11-01 14:06:06.000000,,제주특별자치도 서귀포시 호근서호로 20-14,22:30:00,25,0,22:30:00,33.25656554,126.5390319,60,제주인감귤밭,8:30:00,1,45,,1,40,288,
284,2024-11-01 14:06:07.000000,,제주특별자치도 서귀포시 남원읍 신례천로 193 담소요,21:30:00,10,0,21:00:00,33.29962509,126.6243207,65,카페담소요,8:00:00,2,70,,2,65,289,
285,2024-11-01 14:06:08.000000,,제주특별자치도 제주시 조천읍 와흘상길 30,20:30:00,20,0,20:00:00,33.49398282,126.6334085,50,5L2F,9:15:00,2,75,,2,65,290,
286,2024-11-01 14:06:09.000000,,제주특별자치도 제주시 조천읍 선교로 198,21:00:00,25,0,20:30:00,33.48577918,126.6992109,50,카페 선흘,9:00:00,0,15,,1,30,291,
287,2024-11-01 14:06:10.000000,,제주특별자치도 서귀포시 성산읍 해맞이해안로 2714 orrrn,22:00:00,10,0,21:30:00,33.47180156,126.9157543,25,오른,7:30:00,1,30,,0,15,292,
288,2024-11-01 14:06:11.000000,,제주특별자치도 서귀포시 성산읍 신양로 102,22:30:00,25,0,22:30:00,33.43635671,126.9205218,60,망고레이 섭지코지점,8:30:00,1,45,,1,40,293,
289,2024-11-01 14:06:12.000000,,제주특별자치도 서귀포시 성산읍 일출로 264-6,21:30:00,10,0,21:00:00,33.46099351,126.9338752,65,수마,8:00:00,2,70,,2,65,294,
290,2024-11-01 14:06:13.000000,,제주특별자치도 제주시 구좌읍 하도13길 63 릴로,20:30:00,20,0,20:00:00,33.5108585,126.8929077,50,릴로,9:15:00,2,75,,2,65,295,
291,2024-11-02 17:48:36.000000,2024-11-02 22:17:57.409102,경기도 고양시 덕양구 화랑로 59 1층,21:30:00,15,1,21:00:00,37.60364764,126.8688277,50,AmalloonCoffee,8:30:00,0,25,,0,25,296,